10/05/2010,12:23:48.531,$GPGLL,4648.329,N,09201.617,W
10/05/2010,12:23:58.578,$GPGLL,4648.343,N,09201.586,W
10/05/2010,12:24:08.531,$GPGLL,4648.356,N,09201.554,W
10/05/2010,12:24:18.484,$GPGLL,4648.368,N,09201.523,W
10/05/2010,12:24:28.578,$GPGLL,4648.380,N,09201.491,W
10/05/2010,12:24:38.484,$GPGLL,4648.393,N,09201.460,W
10/05/2010,12:24:48.578,$GPGLL,4648.407,N,09201.429,W
10/05/2010,12:24:58.578,$GPGLL,4648.420,N,09201.398,W
10/05/2010,12:25:08.578,$GPGLL,4648.434,N,09201.367,W
10/05/2010,12:25:18.484,$GPGLL,4648.447,N,09201.335,W
10/05/2010,12:25:28.578,$GPGLL,4648.460,N,09201.304,W
10/05/2010,12:25:38.484,$GPGLL,4648.473,N,09201.274,W
10/05/2010,12:25:48.578,$GPGLL,4648.487,N,09201.244,W
10/05/2010,12:25:58.484,$GPGLL,4648.502,N,09201.213,W
10/05/2010,12:26:08.531,$GPGLL,4648.515,N,09201.183,W
10/05/2010,12:26:18.531,$GPGLL,4648.529,N,09201.152,W
10/05/2010,12:26:28.578,$GPGLL,4648.542,N,09201.121,W
10/05/2010,12:26:38.484,$GPGLL,4648.555,N,09201.089,W
10/05/2010,12:26:48.578,$GPGLL,4648.568,N,09201.058,W
10/05/2010,12:26:53.578,$GPGLL,46ad48.568,N,09201.058,W
10/05/2010,12:26:58.484,$GPGLL,4648.582,N,09201.027,W
10/05/2010,12:27:08.531,$GPGLL,4648.595,N,09200.997,W
10/05/2010,12:27:18.484,$GPGLL,4648.609,N,09200.966,W
10/05/2010,12:27:28.531,$GPGLL,4648.622,N,09200.936,W
10/05/2010,12:27:38.531,$GPGLL,4648.635,N,09200.905,W
10/05/2010,12:27:48.578,$GPGLL,4648.649,N,09200.874,W
10/05/2010,12:27:58.484,$GPGLL,4648.662,N,09200.844,W
10/05/2010,12:28:08.531,$GPGLL,4648.676,N,09200.814,W
10/05/2010,12:28:18.484,$GPGLL,4648.689,N,09200.783,W
10/05/2010,12:28:28.578,$GPGLL,4648.703,N,09200.752,W
10/05/2010,12:28:38.484,$GPGLL,4648.718,N,09200.721,W
10/05/2010,12:28:48.531,$GPGLL,4648.731,N,09200.691,W
10/05/2010,12:28:58.578,$GPGLL,4648.744,N,09200.660,W
10/05/2010,12:29:08.640,$GPVTG,59,T,60,M,9.0,N,16.7,K
10/05/2010,12:29:18.687,$GPVTG,59,T,60,M,9.1,N,16.8,K
10/05/2010,12:29:28.750,$GPVTG,57,T,58,M,9.0,N,16.7,K
10/05/2010,12:29:38.796,$GPVTG,57,T,58,M,9.0,N,16.7,K
10/05/2010,12:29:48.750,$GPVTG,57,T,58,M,9.0,N,16.7,K
10/05/2010,12:29:58.796,$GPVTG,58,T,59,M,9.0,N,16.7,K
10/05/2010,12:30:08.687,$GPVTG,57,T,58,M,9.0,N,16.7,K
10/05/2010,12:30:18.578,$GPGLL,4648.852,N,09200.413,W
10/05/2010,12:30:28.484,$GPGLL,4648.866,N,09200.382,W
10/05/2010,12:30:38.531,$GPGLL,4648.879,N,09200.351,W
10/05/2010,12:30:48.578,$GPGLL,4648.892,N,09200.321,W
10/05/2010,12:30:58.531,$GPGLL,4648.905,N,09200.290,W
10/05/2010,12:31:08.437,$GPGLL,4648.919,N,09200.259,W
10/05/2010,12:31:18.484,$GPGLL,4648.932,N,09200.228,W
10/05/2010,12:31:28.578,$GPGLL,4648.945,N,09200.197,W
10/05/2010,12:31:38.531,$GPGLL,4648.958,N,09200.166,W
10/05/2010,12:31:48.484,$GPGLL,4648.972,N,09200.135,W
10/05/2010,12:31:58.578,$GPGLL,4648.986,N,09200.104,W
10/05/2010,12:32:08.531,$GPGLL,4648.999,N,09200.074,W
10/05/2010,12:32:18.484,$GPGLL,4649.012,N,09200.043,W
10/05/2010,12:32:28.578,$GPGLL,4649.026,N,09200.012,W
10/05/2010,12:32:38.531,$GPGLL,4649.039,N,09159.982,W
10/05/2010,12:32:48.484,$GPGLL,4649.052,N,09159.951,W
10/05/2010,12:32:58.437,$GPGLL,4649.066,N,09159.920,W
10/05/2010,12:33:08.437,$GPGLL,4649.079,N,09159.890,W
10/05/2010,12:33:18.437,$GPGLL,4649.093,N,09159.859,W
10/05/2010,12:33:28.578,$GPGLL,4649.106,N,09159.829,W
10/05/2010,12:33:38.531,$GPGLL,4649.120,N,09159.798,W
10/05/2010,12:33:48.453,$GPGLL,4649.133,N,09159.767,W
10/05/2010,12:33:58.484,$GPGLL,4649.146,N,09159.735,W
10/05/2010,12:34:08.578,$GPGLL,4649.159,N,09159.703,W
10/05/2010,12:34:18.578,$GPGLL,4649.173,N,09159.672,W
10/05/2010,12:34:28.578,$GPGLL,4649.186,N,09159.641,W
10/05/2010,12:34:38.484,$GPGLL,4649.199,N,09159.610,W
10/05/2010,12:34:48.484,$GPGLL,4649.212,N,09159.579,W
10/05/2010,12:34:58.578,$GPGLL,4649.224,N,09159.548,W
10/05/2010,12:35:08.531,$GPGLL,4649.237,N,09159.516,W
10/05/2010,12:35:18.484,$GPGLL,4649.251,N,09159.485,W
10/05/2010,12:35:28.578,$GPGLL,4649.264,N,09159.454,W
10/05/2010,12:35:38.531,$GPGLL,4649.278,N,09159.424,W
10/05/2010,12:35:48.484,$GPGLL,4649.291,N,09159.393,W
10/05/2010,12:35:58.531,$GPGLL,4649.305,N,09159.362,W
10/05/2010,12:36:08.578,$GPGLL,4649.318,N,09159.332,W
10/05/2010,12:36:18.484,$GPGLL,4649.332,N,09159.300,W
10/05/2010,12:36:28.578,$GPGLL,4649.344,N,09159.269,W
10/05/2010,12:36:38.531,$GPGLL,4649.357,N,09159.239,W
10/05/2010,12:36:48.484,$GPGLL,4649.371,N,09159.209,W
10/05/2010,12:36:58.484,$GPGLL,4649.386,N,09159.180,W
10/05/2010,12:37:08.531,$GPGLL,4649.400,N,09159.149,W
10/05/2010,12:37:18.578,$GPGLL,4649.413,N,09159.118,W
10/05/2010,12:37:28.578,$GPGLL,4649.427,N,09159.087,W
10/05/2010,12:37:38.484,$GPGLL,4649.440,N,09159.057,W
10/05/2010,12:37:48.484,$GPGLL,4649.453,N,09159.027,W
10/05/2010,12:37:58.531,$GPGLL,4649.467,N,09158.997,W
10/05/2010,12:38:08.484,$GPGLL,4649.480,N,09158.966,W
10/05/2010,12:38:18.578,$GPGLL,4649.493,N,09158.936,W
10/05/2010,12:38:28.578,$GPGLL,4649.506,N,09158.906,W
10/05/2010,12:38:38.484,$GPGLL,4649.520,N,09158.877,W
10/05/2010,12:38:48.593,$GPGLL,4649.533,N,09158.847,W
10/05/2010,12:38:58.578,$GPGLL,4649.546,N,09158.817,W
10/05/2010,12:39:08.531,$GPGLL,4649.559,N,09158.788,W
10/05/2010,12:39:18.484,$GPGLL,4649.573,N,09158.758,W
10/05/2010,12:39:28.421,$GPGLL,4649.587,N,09158.727,W
10/05/2010,12:39:38.484,$GPGLL,4649.600,N,09158.697,W
10/05/2010,12:39:48.484,$GPGLL,4649.613,N,09158.666,W
10/05/2010,12:39:58.484,$GPGLL,4649.627,N,09158.635,W
10/05/2010,12:40:08.484,$GPGLL,4649.640,N,09158.606,W
10/05/2010,12:40:18.484,$GPGLL,4649.653,N,09158.575,W
10/05/2010,12:40:28.578,$GPGLL,4649.667,N,09158.545,W
10/05/2010,12:40:38.531,$GPGLL,4649.680,N,09158.515,W
10/05/2010,12:40:48.421,$GPGLL,4649.693,N,09158.486,W
10/05/2010,12:40:58.484,$GPGLL,4649.707,N,09158.457,W
10/05/2010,12:41:08.531,$GPGLL,4649.721,N,09158.428,W
10/05/2010,12:41:18.484,$GPGLL,4649.734,N,09158.397,W
10/05/2010,12:41:28.484,$GPGLL,4649.748,N,09158.367,W
10/05/2010,12:41:38.578,$GPGLL,4649.761,N,09158.337,W
10/05/2010,12:41:48.484,$GPGLL,4649.775,N,09158.308,W
10/05/2010,12:41:58.578,$GPGLL,4649.788,N,09158.278,W
10/05/2010,12:42:08.531,$GPGLL,4649.801,N,09158.247,W
10/05/2010,12:42:18.578,$GPGLL,4649.815,N,09158.217,W
10/05/2010,12:42:28.484,$GPGLL,4649.829,N,09158.187,W
10/05/2010,12:42:38.593,$GPGLL,4649.842,N,09158.157,W
10/05/2010,12:42:48.484,$GPGLL,4649.855,N,09158.127,W
10/05/2010,12:42:58.593,$GPGLL,4649.868,N,09158.097,W
10/05/2010,12:43:08.531,$GPGLL,4649.882,N,09158.066,W
10/05/2010,12:43:18.484,$GPGLL,4649.895,N,09158.036,W
10/05/2010,12:43:28.484,$GPGLL,4649.908,N,09158.008,W
10/05/2010,12:43:38.484,$GPGLL,4649.921,N,09157.979,W
10/05/2010,12:43:48.531,$GPGLL,4649.935,N,09157.950,W
10/05/2010,12:43:58.484,$GPGLL,4649.948,N,09157.920,W
10/05/2010,12:44:08.578,$GPGLL,4649.962,N,09157.891,W
10/05/2010,12:44:18.593,$GPGLL,4649.975,N,09157.860,W
10/05/2010,12:44:28.484,$GPGLL,4649.988,N,09157.829,W
10/05/2010,12:44:38.484,$GPGLL,4650.001,N,09157.798,W
10/05/2010,12:44:48.484,$GPGLL,4650.014,N,09157.768,W
10/05/2010,12:44:58.484,$GPGLL,4650.028,N,09157.737,W
10/05/2010,12:45:08.593,$GPGLL,4650.042,N,09157.707,W
10/05/2010,12:45:18.484,$GPGLL,4650.055,N,09157.677,W
10/05/2010,12:45:28.593,$GPGLL,4650.068,N,09157.646,W
10/05/2010,12:45:38.531,$GPGLL,4650.081,N,09157.616,W
10/05/2010,12:45:48.484,$GPGLL,4650.094,N,09157.586,W
10/05/2010,12:45:58.593,$GPGLL,4650.107,N,09157.556,W
10/05/2010,12:46:08.484,$GPGLL,4650.119,N,09157.526,W
10/05/2010,12:46:18.593,$GPGLL,4650.132,N,09157.496,W
10/05/2010,12:46:28.531,$GPGLL,4650.145,N,09157.466,W
10/05/2010,12:46:38.593,$GPGLL,4650.157,N,09157.436,W
10/05/2010,12:46:48.484,$GPGLL,4650.170,N,09157.405,W
10/05/2010,12:46:58.531,$GPGLL,4650.183,N,09157.375,W
10/05/2010,12:47:08.593,$GPGLL,4650.196,N,09157.345,W
10/05/2010,12:47:18.484,$GPGLL,4650.210,N,09157.315,W
10/05/2010,12:47:28.578,$GPGLL,4650.223,N,09157.285,W
10/05/2010,12:47:38.593,$GPGLL,4650.237,N,09157.254,W
10/05/2010,12:47:48.546,$GPGLL,4650.250,N,09157.224,W
10/05/2010,12:47:58.593,$GPGLL,4650.263,N,09157.194,W
10/05/2010,12:48:08.593,$GPGLL,4650.276,N,09157.164,W
10/05/2010,12:48:18.484,$GPGLL,4650.289,N,09157.133,W
10/05/2010,12:48:28.546,$GPGLL,4650.301,N,09157.103,W
10/05/2010,12:48:38.484,$GPGLL,4650.314,N,09157.072,W
10/05/2010,12:48:48.593,$GPGLL,4650.327,N,09157.042,W
10/05/2010,12:48:58.546,$GPGLL,4650.341,N,09157.013,W
10/05/2010,12:49:08.484,$GPGLL,4650.355,N,09156.983,W
10/05/2010,12:49:18.593,$GPGLL,4650.368,N,09156.953,W
10/05/2010,12:49:28.546,$GPGLL,4650.381,N,09156.923,W
10/05/2010,12:49:38.531,$GPGLL,4650.395,N,09156.893,W
10/05/2010,12:49:48.484,$GPGLL,4650.408,N,09156.863,W
10/05/2010,12:49:58.437,$GPGLL,4650.421,N,09156.833,W
10/05/2010,12:50:08.531,$GPGLL,4650.434,N,09156.802,W
10/05/2010,12:50:18.593,$GPGLL,4650.446,N,09156.771,W
10/05/2010,12:50:28.546,$GPGLL,4650.459,N,09156.741,W
10/05/2010,12:50:38.484,$GPGLL,4650.471,N,09156.710,W
10/05/2010,12:50:48.593,$GPGLL,4650.484,N,09156.680,W
10/05/2010,12:50:58.593,$GPGLL,4650.496,N,09156.649,W
10/05/2010,12:51:08.484,$GPGLL,4650.510,N,09156.619,W
10/05/2010,12:51:18.531,$GPGLL,4650.524,N,09156.591,W
10/05/2010,12:51:28.593,$GPGLL,4650.538,N,09156.562,W
10/05/2010,12:51:38.484,$GPGLL,4650.553,N,09156.533,W
10/05/2010,12:51:48.484,$GPGLL,4650.567,N,09156.504,W
10/05/2010,12:51:58.484,$GPGLL,4650.581,N,09156.474,W
10/05/2010,12:52:08.593,$GPGLL,4650.595,N,09156.444,W
10/05/2010,12:52:18.484,$GPGLL,4650.608,N,09156.414,W
10/05/2010,12:52:28.593,$GPGLL,4650.622,N,09156.384,W
10/05/2010,12:52:38.484,$GPGLL,4650.635,N,09156.355,W
10/05/2010,12:52:48.593,$GPGLL,4650.649,N,09156.326,W
10/05/2010,12:52:58.546,$GPGLL,4650.662,N,09156.296,W
10/05/2010,12:53:08.484,$GPGLL,4650.675,N,09156.266,W
10/05/2010,12:53:18.593,$GPGLL,4650.688,N,09156.236,W
10/05/2010,12:53:28.546,$GPGLL,4650.702,N,09156.206,W
10/05/2010,12:53:38.484,$GPGLL,4650.715,N,09156.175,W
10/05/2010,12:53:48.593,$GPGLL,4650.727,N,09156.145,W
10/05/2010,12:53:58.484,$GPGLL,4650.740,N,09156.114,W
10/05/2010,12:54:08.546,$GPGLL,4650.752,N,09156.083,W
10/05/2010,12:54:18.484,$GPGLL,4650.766,N,09156.052,W
10/05/2010,12:54:28.593,$GPGLL,4650.780,N,09156.022,W
10/05/2010,12:54:38.593,$GPGLL,4650.794,N,09155.992,W
10/05/2010,12:54:48.671,$GPVTG,54,T,55,M,8.9,N,16.4,K
10/05/2010,12:54:58.593,$GPGLL,4650.823,N,09155.934,W
10/05/2010,12:55:08.546,$GPGLL,4650.837,N,09155.904,W
10/05/2010,12:55:18.484,$GPGLL,4650.850,N,09155.874,W
10/05/2010,12:55:28.593,$GPGLL,4650.863,N,09155.844,W
10/05/2010,12:55:38.593,$GPGLL,4650.876,N,09155.814,W
10/05/2010,12:55:48.593,$GPGLL,4650.889,N,09155.784,W
10/05/2010,12:55:58.593,$GPGLL,4650.903,N,09155.754,W
10/05/2010,12:56:08.546,$GPGLL,4650.916,N,09155.724,W
10/05/2010,12:56:18.546,$GPGLL,4650.930,N,09155.693,W
10/05/2010,12:56:28.593,$GPGLL,4650.943,N,09155.662,W
10/05/2010,12:56:38.593,$GPGLL,4650.956,N,09155.632,W
10/05/2010,12:56:48.546,$GPGLL,4650.970,N,09155.602,W
10/05/2010,12:56:58.593,$GPGLL,4650.983,N,09155.571,W
10/05/2010,12:57:08.546,$GPGLL,4650.996,N,09155.541,W
10/05/2010,12:57:18.484,$GPGLL,4651.010,N,09155.510,W
10/05/2010,12:57:28.593,$GPGLL,4651.023,N,09155.479,W
10/05/2010,12:57:38.546,$GPGLL,4651.036,N,09155.449,W
10/05/2010,12:57:48.484,$GPGLL,4651.049,N,09155.418,W
10/05/2010,12:57:58.546,$GPGLL,4651.061,N,09155.387,W
10/05/2010,12:58:08.546,$GPGLL,4651.075,N,09155.356,W
10/05/2010,12:58:18.593,$GPGLL,4651.087,N,09155.325,W
10/05/2010,12:58:28.546,$GPGLL,4651.100,N,09155.295,W
10/05/2010,12:58:38.546,$GPGLL,4651.113,N,09155.264,W
10/05/2010,12:58:48.546,$GPGLL,4651.127,N,09155.233,W
10/05/2010,12:58:58.546,$GPGLL,4651.140,N,09155.203,W
10/05/2010,12:59:08.546,$GPGLL,4651.154,N,09155.172,W
10/05/2010,12:59:18.593,$GPGLL,4651.166,N,09155.141,W
10/05/2010,12:59:28.593,$GPGLL,4651.179,N,09155.110,W
10/05/2010,12:59:38.546,$GPGLL,4651.192,N,09155.078,W
10/05/2010,12:59:48.484,$GPGLL,4651.204,N,09155.048,W
10/05/2010,12:59:58.593,$GPGLL,4651.217,N,09155.018,W
10/05/2010,13:00:08.593,$GPGLL,4651.229,N,09154.987,W
10/05/2010,13:00:18.593,$GPGLL,4651.242,N,09154.957,W
10/05/2010,13:00:28.671,$GPVTG,60,T,61,M,8.8,N,16.4,K
10/05/2010,13:00:38.750,$GPVTG,59,T,60,M,8.8,N,16.3,K
10/05/2010,13:00:48.796,$GPVTG,58,T,59,M,8.8,N,16.3,K
10/05/2010,13:00:58.765,$GPZDA,130017,05,10,2010,0
10/05/2010,13:01:08.750,$GPVTG,57,T,58,M,8.8,N,16.2,K
10/05/2010,13:01:18.796,$GPVTG,57,T,58,M,8.8,N,16.3,K
10/05/2010,13:01:28.796,$GPVTG,57,T,58,M,8.8,N,16.3,K
10/05/2010,13:01:38.703,$GPVTG,56,T,57,M,8.8,N,16.3,K
10/05/2010,13:01:48.750,$GPVTG,57,T,58,M,8.7,N,16.2,K
10/05/2010,13:01:58.703,$GPVTG,57,T,58,M,8.8,N,16.2,K
10/05/2010,13:02:08.703,$GPVTG,57,T,58,M,8.8,N,16.3,K
10/05/2010,13:02:18.703,$GPVTG,57,T,58,M,8.8,N,16.3,K
10/05/2010,13:02:28.703,$GPGGA,130147,4651.413,N,09154.568,W,1,9,0.3,196,M,-32,M
10/05/2010,13:02:38.750,$GPVTG,57,T,58,M,8.8,N,16.2,K
10/05/2010,13:02:48.750,$GPVTG,58,T,59,M,8.8,N,16.2,K
10/05/2010,13:02:58.796,$GPVTG,59,T,60,M,8.8,N,16.2,K
10/05/2010,13:03:08.796,$GPVTG,59,T,60,M,8.8,N,16.3,K
10/05/2010,13:03:18.703,$GPVTG,58,T,59,M,8.8,N,16.2,K
10/05/2010,13:03:28.703,$GPVTG,57,T,58,M,8.8,N,16.2,K
10/05/2010,13:03:38.703,$GPGGA,130257,4651.504,N,09154.357,W,1,8,0.3,197,M,-32,M
10/05/2010,13:03:48.703,$GPVTG,54,T,55,M,8.8,N,16.3,K
10/05/2010,13:03:58.703,$GPVTG,56,T,57,M,8.8,N,16.3,K
10/05/2010,13:04:08.703,$GPVTG,56,T,57,M,8.8,N,16.3,K
10/05/2010,13:04:18.703,$GPVTG,56,T,57,M,8.8,N,16.4,K
10/05/2010,13:04:28.750,$GPVTG,55,T,56,M,8.9,N,16.4,K
10/05/2010,13:04:38.796,$GPVTG,55,T,56,M,8.8,N,16.4,K
10/05/2010,13:04:48.796,$GPVTG,56,T,57,M,8.8,N,16.3,K
10/05/2010,13:04:58.796,$GPVTG,56,T,57,M,8.8,N,16.4,K
10/05/2010,13:05:08.750,$GPVTG,57,T,58,M,8.8,N,16.3,K
10/05/2010,13:05:18.750,$GPVTG,57,T,58,M,8.8,N,16.2,K
10/05/2010,13:05:28.703,$GPVTG,56,T,57,M,8.8,N,16.3,K
10/05/2010,13:05:38.750,$GPVTG,55,T,56,M,8.8,N,16.3,K
10/05/2010,13:05:48.703,$GPVTG,55,T,56,M,8.8,N,16.3,K
10/05/2010,13:05:58.703,$GPGGA,130517,4651.698,N,09153.945,W,1,8,0.3,201,M,-32,M
10/05/2010,13:06:08.750,$GPVTG,55,T,56,M,8.8,N,16.4,K
10/05/2010,13:06:18.703,$GPVTG,56,T,57,M,8.8,N,16.3,K
10/05/2010,13:06:28.593,$GPGLL,4651.739,N,09153.857,W
10/05/2010,13:06:38.546,$GPGLL,4651.754,N,09153.828,W
10/05/2010,13:06:48.500,$GPGLL,4651.768,N,09153.800,W
10/05/2010,13:06:58.593,$GPGLL,4651.782,N,09153.771,W
10/05/2010,13:07:08.546,$GPGLL,4651.796,N,09153.741,W
10/05/2010,13:07:18.546,$GPGLL,4651.811,N,09153.712,W
10/05/2010,13:07:28.484,$GPGLL,4651.825,N,09153.683,W
10/05/2010,13:07:38.546,$GPGLL,4651.839,N,09153.654,W
10/05/2010,13:07:48.453,$GPGLL,4651.854,N,09153.625,W
10/05/2010,13:07:58.546,$GPGLL,4651.868,N,09153.596,W
10/05/2010,13:08:08.593,$GPGLL,4651.882,N,09153.567,W
10/05/2010,13:08:18.593,$GPGLL,4651.896,N,09153.537,W
10/05/2010,13:08:28.593,$GPGLL,4651.909,N,09153.506,W
10/05/2010,13:08:38.484,$GPGLL,4651.922,N,09153.476,W
10/05/2010,13:08:48.546,$GPGLL,4651.935,N,09153.445,W
10/05/2010,13:08:58.546,$GPGLL,4651.948,N,09153.415,W
10/05/2010,13:09:08.546,$GPGLL,4651.961,N,09153.385,W
10/05/2010,13:09:18.468,$GPGLL,4651.974,N,09153.355,W
10/05/2010,13:09:28.546,$GPGLL,4651.987,N,09153.325,W
10/05/2010,13:09:38.546,$GPGLL,4652.001,N,09153.295,W
10/05/2010,13:09:48.437,$GPGLL,4652.013,N,09153.265,W
10/05/2010,13:09:58.453,$GPGLL,4652.026,N,09153.235,W
10/05/2010,13:10:08.546,$GPGLL,4652.039,N,09153.204,W
10/05/2010,13:10:18.546,$GPGLL,4652.052,N,09153.174,W
10/05/2010,13:10:28.593,$GPGLL,4652.065,N,09153.143,W
10/05/2010,13:10:38.500,$GPGLL,4652.078,N,09153.113,W
10/05/2010,13:10:48.468,$GPGLL,4652.091,N,09153.082,W
10/05/2010,13:10:58.593,$GPGLL,4652.103,N,09153.051,W
10/05/2010,13:11:08.500,$GPGLL,4652.115,N,09153.021,W
10/05/2010,13:11:18.593,$GPGLL,4652.128,N,09152.990,W
10/05/2010,13:11:28.593,$GPGLL,4652.140,N,09152.960,W
10/05/2010,13:11:38.593,$GPGLL,4652.153,N,09152.930,W
10/05/2010,13:11:48.500,$GPGLL,4652.166,N,09152.898,W
10/05/2010,13:11:58.593,$GPGLL,4652.179,N,09152.867,W
10/05/2010,13:12:08.546,$GPGLL,4652.193,N,09152.836,W
10/05/2010,13:12:18.500,$GPGLL,4652.206,N,09152.804,W
10/05/2010,13:12:28.593,$GPGLL,4652.220,N,09152.773,W
10/05/2010,13:12:38.546,$GPGLL,4652.233,N,09152.742,W
10/05/2010,13:12:48.453,$GPGLL,4652.247,N,09152.711,W
10/05/2010,13:12:58.500,$GPGLL,4652.261,N,09152.680,W
10/05/2010,13:13:08.546,$GPGLL,4652.274,N,09152.649,W
10/05/2010,13:13:18.500,$GPGLL,4652.287,N,09152.618,W
10/05/2010,13:13:28.593,$GPGLL,4652.300,N,09152.587,W
10/05/2010,13:13:38.546,$GPGLL,4652.313,N,09152.556,W
10/05/2010,13:13:48.500,$GPGLL,4652.325,N,09152.524,W
10/05/2010,13:13:58.593,$GPGLL,4652.338,N,09152.493,W
10/05/2010,13:14:08.546,$GPGLL,4652.351,N,09152.462,W
10/05/2010,13:14:18.546,$GPGLL,4652.364,N,09152.431,W
10/05/2010,13:14:28.500,$GPGLL,4652.377,N,09152.399,W
10/05/2010,13:14:38.593,$GPGLL,4652.389,N,09152.368,W
10/05/2010,13:14:48.593,$GPGLL,4652.401,N,09152.336,W
10/05/2010,13:14:58.500,$GPGLL,4652.413,N,09152.304,W
10/05/2010,13:15:08.546,$GPGLL,4652.426,N,09152.273,W
10/05/2010,13:15:18.500,$GPGLL,4652.438,N,09152.241,W
10/05/2010,13:15:28.546,$GPGLL,4652.450,N,09152.209,W
10/05/2010,13:15:38.453,$GPGLL,4652.463,N,09152.176,W
10/05/2010,13:15:48.593,$GPGLL,4652.475,N,09152.145,W
10/05/2010,13:15:58.546,$GPGLL,4652.488,N,09152.113,W
10/05/2010,13:16:08.593,$GPGLL,4652.501,N,09152.082,W
10/05/2010,13:16:18.593,$GPGLL,4652.514,N,09152.051,W
10/05/2010,13:16:28.593,$GPGLL,4652.528,N,09152.020,W
10/05/2010,13:16:38.546,$GPGLL,4652.542,N,09151.989,W
10/05/2010,13:16:48.500,$GPGLL,4652.555,N,09151.958,W
10/05/2010,13:16:58.593,$GPGLL,4652.569,N,09151.927,W
10/05/2010,13:17:08.546,$GPGLL,4652.582,N,09151.896,W
10/05/2010,13:17:18.546,$GPGLL,4652.595,N,09151.865,W
10/05/2010,13:17:28.593,$GPGLL,4652.609,N,09151.834,W
10/05/2010,13:17:38.500,$GPGLL,4652.623,N,09151.803,W
10/05/2010,13:17:48.593,$GPGLL,4652.637,N,09151.773,W
10/05/2010,13:17:58.593,$GPGLL,4652.651,N,09151.742,W
10/05/2010,13:18:08.500,$GPGLL,4652.665,N,09151.711,W
10/05/2010,13:18:18.500,$GPGLL,4652.678,N,09151.680,W
10/05/2010,13:18:28.593,$GPGLL,4652.692,N,09151.649,W
10/05/2010,13:18:38.546,$GPGLL,4652.706,N,09151.619,W
10/05/2010,13:18:48.593,$GPGLL,4652.720,N,09151.588,W
10/05/2010,13:18:58.500,$GPGLL,4652.733,N,09151.557,W
10/05/2010,13:19:08.546,$GPGLL,4652.747,N,09151.527,W
10/05/2010,13:19:18.593,$GPGLL,4652.761,N,09151.497,W
10/05/2010,13:19:28.500,$GPGLL,4652.774,N,09151.467,W
10/05/2010,13:19:38.593,$GPGLL,4652.788,N,09151.436,W
10/05/2010,13:19:48.500,$GPGLL,4652.801,N,09151.405,W
10/05/2010,13:19:58.593,$GPGLL,4652.815,N,09151.374,W
10/05/2010,13:20:08.593,$GPGLL,4652.828,N,09151.344,W
10/05/2010,13:20:18.500,$GPGLL,4652.842,N,09151.313,W
10/05/2010,13:20:28.593,$GPGLL,4652.856,N,09151.282,W
10/05/2010,13:20:38.546,$GPGLL,4652.869,N,09151.251,W
10/05/2010,13:20:48.500,$GPGLL,4652.883,N,09151.220,W
10/05/2010,13:20:58.593,$GPGLL,4652.897,N,09151.189,W
10/05/2010,13:21:08.546,$GPGLL,4652.910,N,09151.158,W
10/05/2010,13:21:18.593,$GPGLL,4652.924,N,09151.127,W
10/05/2010,13:21:28.546,$GPGLL,4652.938,N,09151.096,W
10/05/2010,13:21:38.500,$GPGLL,4652.951,N,09151.064,W
10/05/2010,13:21:48.593,$GPGLL,4652.964,N,09151.033,W
10/05/2010,13:21:58.546,$GPGLL,4652.977,N,09151.001,W
10/05/2010,13:22:08.546,$GPGLL,4652.991,N,09150.970,W
10/05/2010,13:22:18.500,$GPGLL,4653.004,N,09150.938,W
10/05/2010,13:22:28.593,$GPGLL,4653.018,N,09150.907,W
10/05/2010,13:22:38.546,$GPGLL,4653.032,N,09150.876,W
10/05/2010,13:22:48.500,$GPGLL,4653.045,N,09150.844,W
10/05/2010,13:22:58.593,$GPGLL,4653.058,N,09150.813,W
10/05/2010,13:23:08.500,$GPGLL,4653.072,N,09150.781,W
10/05/2010,13:23:18.593,$GPGLL,4653.086,N,09150.750,W
10/05/2010,13:23:28.546,$GPGLL,4653.100,N,09150.719,W
10/05/2010,13:23:38.500,$GPGLL,4653.114,N,09150.689,W
10/05/2010,13:23:48.593,$GPGLL,4653.127,N,09150.658,W
10/05/2010,13:23:58.546,$GPGLL,4653.141,N,09150.627,W
10/05/2010,13:24:08.500,$GPGLL,4653.155,N,09150.596,W
10/05/2010,13:24:18.468,$GPGLL,4653.169,N,09150.565,W
10/05/2010,13:24:28.500,$GPGLL,4653.183,N,09150.534,W
10/05/2010,13:24:38.546,$GPGLL,4653.196,N,09150.503,W
10/05/2010,13:24:48.500,$GPGLL,4653.210,N,09150.472,W
10/05/2010,13:24:58.593,$GPGLL,4653.224,N,09150.441,W
10/05/2010,13:25:08.546,$GPGLL,4653.238,N,09150.410,W
10/05/2010,13:25:18.500,$GPGLL,4653.253,N,09150.380,W
10/05/2010,13:25:28.593,$GPGLL,4653.267,N,09150.349,W
10/05/2010,13:25:38.546,$GPGLL,4653.281,N,09150.318,W
10/05/2010,13:25:48.500,$GPGLL,4653.296,N,09150.287,W
10/05/2010,13:25:58.593,$GPGLL,4653.311,N,09150.256,W
10/05/2010,13:26:08.546,$GPGLL,4653.325,N,09150.225,W
10/05/2010,13:26:18.593,$GPGLL,4653.338,N,09150.193,W
10/05/2010,13:26:28.500,$GPGLL,4653.352,N,09150.161,W
10/05/2010,13:26:38.500,$GPGLL,4653.365,N,09150.130,W
10/05/2010,13:26:48.500,$GPGLL,4653.379,N,09150.098,W
10/05/2010,13:26:58.593,$GPGLL,4653.393,N,09150.067,W
10/05/2010,13:27:08.500,$GPGLL,4653.406,N,09150.036,W
10/05/2010,13:27:18.546,$GPGLL,4653.419,N,09150.004,W
10/05/2010,13:27:28.500,$GPGLL,4653.432,N,09149.972,W
10/05/2010,13:27:38.593,$GPGLL,4653.446,N,09149.940,W
10/05/2010,13:27:48.546,$GPGLL,4653.460,N,09149.909,W
10/05/2010,13:27:58.500,$GPGLL,4653.474,N,09149.878,W
10/05/2010,13:28:08.593,$GPGLL,4653.487,N,09149.846,W
10/05/2010,13:28:18.500,$GPGLL,4653.500,N,09149.814,W
10/05/2010,13:28:28.593,$GPGLL,4653.513,N,09149.782,W
10/05/2010,13:28:38.546,$GPGLL,4653.526,N,09149.750,W
10/05/2010,13:28:48.500,$GPGLL,4653.540,N,09149.718,W
10/05/2010,13:28:58.593,$GPGLL,4653.554,N,09149.687,W
10/05/2010,13:29:08.546,$GPGLL,4653.567,N,09149.655,W
10/05/2010,13:29:18.593,$GPGLL,4653.580,N,09149.623,W
10/05/2010,13:29:28.593,$GPGLL,4653.593,N,09149.591,W
10/05/2010,13:29:38.500,$GPGLL,4653.608,N,09149.560,W
10/05/2010,13:29:48.546,$GPGLL,4653.621,N,09149.529,W
10/05/2010,13:29:58.500,$GPGLL,4653.635,N,09149.497,W
10/05/2010,13:30:08.593,$GPGLL,4653.649,N,09149.465,W
10/05/2010,13:30:18.546,$GPGLL,4653.663,N,09149.434,W
10/05/2010,13:30:28.500,$GPGLL,4653.676,N,09149.402,W
10/05/2010,13:30:38.593,$GPGLL,4653.690,N,09149.371,W
10/05/2010,13:30:48.546,$GPGLL,4653.703,N,09149.339,W
10/05/2010,13:30:58.500,$GPGLL,4653.717,N,09149.307,W
10/05/2010,13:31:08.593,$GPGLL,4653.730,N,09149.276,W
10/05/2010,13:31:18.546,$GPGLL,4653.744,N,09149.244,W
10/05/2010,13:31:28.500,$GPGLL,4653.757,N,09149.213,W
10/05/2010,13:31:38.593,$GPGLL,4653.772,N,09149.182,W
10/05/2010,13:31:48.546,$GPGLL,4653.786,N,09149.151,W
10/05/2010,13:31:58.593,$GPGLL,4653.800,N,09149.119,W
10/05/2010,13:32:08.500,$GPGLL,4653.814,N,09149.087,W
10/05/2010,13:32:18.500,$GPGLL,4653.827,N,09149.055,W
10/05/2010,13:32:28.593,$GPGLL,4653.840,N,09149.023,W
10/05/2010,13:32:38.546,$GPGLL,4653.854,N,09148.991,W
10/05/2010,13:32:48.500,$GPGLL,4653.868,N,09148.959,W
10/05/2010,13:32:58.593,$GPGLL,4653.882,N,09148.928,W
10/05/2010,13:33:08.546,$GPGLL,4653.896,N,09148.897,W
10/05/2010,13:33:18.500,$GPGLL,4653.910,N,09148.866,W
10/05/2010,13:33:28.546,$GPGLL,4653.923,N,09148.834,W
10/05/2010,13:33:38.500,$GPGLL,4653.936,N,09148.802,W
10/05/2010,13:33:48.546,$GPGLL,4653.950,N,09148.770,W
10/05/2010,13:33:58.500,$GPGLL,4653.964,N,09148.738,W
10/05/2010,13:34:08.546,$GPGLL,4653.978,N,09148.707,W
10/05/2010,13:34:18.593,$GPGLL,4653.992,N,09148.676,W
10/05/2010,13:34:28.500,$GPGLL,4654.006,N,09148.644,W
10/05/2010,13:34:38.593,$GPGLL,4654.019,N,09148.612,W
10/05/2010,13:34:48.593,$GPGLL,4654.033,N,09148.580,W
10/05/2010,13:34:58.500,$GPGLL,4654.047,N,09148.549,W
10/05/2010,13:35:08.593,$GPGLL,4654.061,N,09148.518,W
10/05/2010,13:35:18.546,$GPGLL,4654.076,N,09148.487,W
10/05/2010,13:35:28.593,$GPGLL,4654.090,N,09148.455,W
10/05/2010,13:35:38.546,$GPGLL,4654.104,N,09148.424,W
10/05/2010,13:35:48.546,$GPGLL,4654.118,N,09148.393,W
10/05/2010,13:35:58.546,$GPGLL,4654.133,N,09148.362,W
10/05/2010,13:36:08.546,$GPGLL,4654.147,N,09148.330,W
10/05/2010,13:36:18.546,$GPGLL,4654.161,N,09148.299,W
10/05/2010,13:36:28.500,$GPGLL,4654.175,N,09148.268,W
10/05/2010,13:36:38.500,$GPGLL,4654.190,N,09148.236,W
10/05/2010,13:36:48.546,$GPGLL,4654.204,N,09148.205,W
10/05/2010,13:36:58.546,$GPGLL,4654.219,N,09148.173,W
10/05/2010,13:37:08.500,$GPGLL,4654.233,N,09148.142,W
10/05/2010,13:37:18.500,$GPGLL,4654.247,N,09148.110,W
10/05/2010,13:37:28.593,$GPGLL,4654.262,N,09148.079,W
10/05/2010,13:37:38.546,$GPGLL,4654.276,N,09148.047,W
10/05/2010,13:37:48.500,$GPGLL,4654.291,N,09148.016,W
10/05/2010,13:37:58.500,$GPGLL,4654.306,N,09147.985,W
10/05/2010,13:38:08.500,$GPGLL,4654.320,N,09147.954,W
10/05/2010,13:38:18.593,$GPGLL,4654.334,N,09147.922,W
10/05/2010,13:38:28.500,$GPGLL,4654.349,N,09147.891,W
10/05/2010,13:38:38.593,$GPGLL,4654.363,N,09147.860,W
10/05/2010,13:38:48.593,$GPGLL,4654.378,N,09147.829,W
10/05/2010,13:38:58.546,$GPGLL,4654.392,N,09147.798,W
10/05/2010,13:39:08.593,$GPGLL,4654.406,N,09147.766,W
10/05/2010,13:39:18.546,$GPGLL,4654.420,N,09147.734,W
10/05/2010,13:39:28.500,$GPGLL,4654.434,N,09147.703,W
10/05/2010,13:39:38.593,$GPGLL,4654.449,N,09147.672,W
10/05/2010,13:39:48.546,$GPGLL,4654.463,N,09147.640,W
10/05/2010,13:39:58.500,$GPGLL,4654.477,N,09147.608,W
10/05/2010,13:40:08.593,$GPGLL,4654.491,N,09147.577,W
10/05/2010,13:40:18.500,$GPGLL,4654.506,N,09147.546,W
10/05/2010,13:40:28.546,$GPGLL,4654.521,N,09147.515,W
10/05/2010,13:40:38.546,$GPGLL,4654.535,N,09147.484,W
10/05/2010,13:40:48.500,$GPGLL,4654.549,N,09147.453,W
10/05/2010,13:40:58.593,$GPGLL,4654.564,N,09147.421,W
10/05/2010,13:41:08.546,$GPGLL,4654.578,N,09147.390,W
10/05/2010,13:41:18.593,$GPGLL,4654.592,N,09147.359,W
10/05/2010,13:41:28.593,$GPGLL,4654.606,N,09147.327,W
10/05/2010,13:41:38.593,$GPGLL,4654.621,N,09147.296,W
10/05/2010,13:41:48.500,$GPGLL,4654.635,N,09147.265,W
10/05/2010,13:41:58.593,$GPGLL,4654.648,N,09147.233,W
10/05/2010,13:42:08.546,$GPGLL,4654.662,N,09147.202,W
10/05/2010,13:42:18.500,$GPGLL,4654.677,N,09147.170,W
10/05/2010,13:42:28.593,$GPGLL,4654.691,N,09147.139,W
10/05/2010,13:42:38.500,$GPGLL,4654.704,N,09147.107,W
10/05/2010,13:42:48.593,$GPGLL,4654.717,N,09147.075,W
10/05/2010,13:42:58.500,$GPGLL,4654.730,N,09147.042,W
10/05/2010,13:43:08.500,$GPGLL,4654.743,N,09147.010,W
10/05/2010,13:43:18.546,$GPGLL,4654.757,N,09146.978,W
10/05/2010,13:43:28.546,$GPGLL,4654.770,N,09146.946,W
10/05/2010,13:43:38.500,$GPGLL,4654.784,N,09146.914,W
10/05/2010,13:43:48.546,$GPGLL,4654.797,N,09146.882,W
10/05/2010,13:43:58.593,$GPGLL,4654.809,N,09146.849,W
10/05/2010,13:44:08.546,$GPGLL,4654.823,N,09146.817,W
10/05/2010,13:44:18.593,$GPGLL,4654.836,N,09146.785,W
10/05/2010,13:44:28.546,$GPGLL,4654.850,N,09146.754,W
10/05/2010,13:44:38.593,$GPGLL,4654.863,N,09146.722,W
10/05/2010,13:44:48.593,$GPGLL,4654.877,N,09146.690,W
10/05/2010,13:44:58.500,$GPGLL,4654.890,N,09146.658,W
10/05/2010,13:45:08.546,$GPGLL,4654.904,N,09146.627,W
10/05/2010,13:45:18.593,$GPGLL,4654.918,N,09146.595,W
10/05/2010,13:45:28.500,$GPGLL,4654.931,N,09146.563,W
10/05/2010,13:45:38.500,$GPGLL,4654.945,N,09146.531,W
10/05/2010,13:45:48.500,$GPGLL,4654.958,N,09146.499,W
10/05/2010,13:45:58.593,$GPGLL,4654.972,N,09146.468,W
10/05/2010,13:46:08.500,$GPGLL,4654.986,N,09146.436,W
10/05/2010,13:46:18.546,$GPGLL,4655.000,N,09146.404,W
10/05/2010,13:46:28.593,$GPGLL,4655.014,N,09146.372,W
10/05/2010,13:46:38.593,$GPGLL,4655.027,N,09146.340,W
10/05/2010,13:46:48.500,$GPGLL,4655.041,N,09146.308,W
10/05/2010,13:46:58.500,$GPGLL,4655.054,N,09146.276,W
10/05/2010,13:47:08.593,$GPGLL,4655.068,N,09146.244,W
10/05/2010,13:47:18.500,$GPGLL,4655.081,N,09146.213,W
10/05/2010,13:47:28.593,$GPGLL,4655.095,N,09146.182,W
10/05/2010,13:47:38.500,$GPGLL,4655.109,N,09146.151,W
10/05/2010,13:47:48.593,$GPGLL,4655.124,N,09146.121,W
10/05/2010,13:47:58.500,$GPGLL,4655.139,N,09146.090,W
10/05/2010,13:48:08.546,$GPGLL,4655.153,N,09146.059,W
10/05/2010,13:48:18.593,$GPGLL,4655.168,N,09146.028,W
10/05/2010,13:48:28.546,$GPGLL,4655.182,N,09145.998,W
10/05/2010,13:48:38.546,$GPGLL,4655.196,N,09145.967,W
10/05/2010,13:48:48.500,$GPGLL,4655.211,N,09145.936,W
10/05/2010,13:48:58.500,$GPGLL,4655.225,N,09145.906,W
10/05/2010,13:49:08.500,$GPGLL,4655.240,N,09145.874,W
10/05/2010,13:49:18.593,$GPGLL,4655.253,N,09145.843,W
10/05/2010,13:49:28.500,$GPGLL,4655.267,N,09145.811,W
10/05/2010,13:49:38.546,$GPGLL,4655.280,N,09145.780,W
10/05/2010,13:49:48.500,$GPGLL,4655.293,N,09145.748,W
10/05/2010,13:49:58.593,$GPGLL,4655.306,N,09145.716,W
10/05/2010,13:50:08.500,$GPGLL,4655.320,N,09145.685,W
10/05/2010,13:50:18.546,$GPGLL,4655.334,N,09145.653,W
10/05/2010,13:50:28.609,$GPGLL,4655.347,N,09145.621,W
10/05/2010,13:50:38.546,$GPGLL,4655.360,N,09145.589,W
10/05/2010,13:50:48.500,$GPGLL,4655.373,N,09145.557,W
10/05/2010,13:50:58.500,$GPGLL,4655.386,N,09145.525,W
10/05/2010,13:51:08.500,$GPGLL,4655.399,N,09145.494,W
10/05/2010,13:51:18.500,$GPGLL,4655.413,N,09145.462,W
10/05/2010,13:51:28.500,$GPGLL,4655.428,N,09145.431,W
10/05/2010,13:51:38.500,$GPGLL,4655.442,N,09145.400,W
10/05/2010,13:51:48.546,$GPGLL,4655.456,N,09145.368,W
10/05/2010,13:51:58.500,$GPGLL,4655.470,N,09145.337,W
10/05/2010,13:52:08.546,$GPGLL,4655.484,N,09145.306,W
10/05/2010,13:52:18.546,$GPGLL,4655.498,N,09145.275,W
10/05/2010,13:52:28.609,$GPGLL,4655.512,N,09145.244,W
10/05/2010,13:52:38.500,$GPGLL,4655.526,N,09145.213,W
10/05/2010,13:52:48.609,$GPGLL,4655.539,N,09145.181,W
10/05/2010,13:52:58.609,$GPGLL,4655.552,N,09145.149,W
10/05/2010,13:53:08.546,$GPGLL,4655.565,N,09145.117,W
10/05/2010,13:53:18.500,$GPGLL,4655.578,N,09145.085,W
10/05/2010,13:53:28.546,$GPGLL,4655.591,N,09145.053,W
10/05/2010,13:53:38.593,$GPGLL,4655.606,N,09145.022,W
10/05/2010,13:53:48.546,$GPGLL,4655.620,N,09144.991,W
10/05/2010,13:53:58.468,$GPGLL,4655.633,N,09144.960,W
10/05/2010,13:54:08.546,$GPGLL,4655.646,N,09144.928,W
10/05/2010,13:54:18.562,$GPGLL,4655.659,N,09144.896,W
10/05/2010,13:54:28.500,$GPGLL,4655.672,N,09144.864,W
10/05/2010,13:54:38.468,$GPGLL,4655.686,N,09144.833,W
10/05/2010,13:54:48.546,$GPGLL,4655.700,N,09144.801,W
10/05/2010,13:54:58.609,$GPGLL,4655.713,N,09144.770,W
10/05/2010,13:55:08.500,$GPGLL,4655.726,N,09144.738,W
10/05/2010,13:55:18.609,$GPGLL,4655.739,N,09144.706,W
10/05/2010,13:55:28.609,$GPGLL,4655.752,N,09144.673,W
10/05/2010,13:55:38.500,$GPGLL,4655.766,N,09144.641,W
10/05/2010,13:55:48.546,$GPGLL,4655.779,N,09144.610,W
10/05/2010,13:55:58.609,$GPGLL,4655.793,N,09144.579,W
10/05/2010,13:56:08.609,$GPGLL,4655.807,N,09144.547,W
10/05/2010,13:56:18.609,$GPGLL,4655.820,N,09144.515,W
10/05/2010,13:56:28.546,$GPGLL,4655.834,N,09144.484,W
10/05/2010,13:56:38.500,$GPGLL,4655.848,N,09144.453,W
10/05/2010,13:56:48.609,$GPGLL,4655.861,N,09144.421,W
10/05/2010,13:56:58.609,$GPGLL,4655.875,N,09144.389,W
10/05/2010,13:57:08.609,$GPGLL,4655.888,N,09144.358,W
10/05/2010,13:57:18.500,$GPGLL,4655.902,N,09144.326,W
10/05/2010,13:57:28.609,$GPGLL,4655.915,N,09144.294,W
10/05/2010,13:57:38.609,$GPGLL,4655.928,N,09144.262,W
10/05/2010,13:57:48.500,$GPGLL,4655.942,N,09144.231,W
10/05/2010,13:57:58.609,$GPGLL,4655.956,N,09144.201,W
10/05/2010,13:58:08.500,$GPGLL,4655.970,N,09144.170,W
10/05/2010,13:58:18.546,$GPGLL,4655.984,N,09144.139,W
10/05/2010,13:58:28.546,$GPGLL,4655.998,N,09144.107,W
10/05/2010,13:58:38.546,$GPGLL,4656.011,N,09144.075,W
10/05/2010,13:58:48.546,$GPGLL,4656.025,N,09144.043,W
10/05/2010,13:58:58.546,$GPGLL,4656.038,N,09144.011,W
10/05/2010,13:59:08.609,$GPGLL,4656.052,N,09143.980,W
10/05/2010,13:59:18.500,$GPGLL,4656.065,N,09143.948,W
10/05/2010,13:59:28.500,$GPGLL,4656.079,N,09143.916,W
10/05/2010,13:59:38.562,$GPGLL,4656.092,N,09143.885,W
10/05/2010,13:59:48.546,$GPGLL,4656.106,N,09143.854,W
10/05/2010,13:59:58.546,$GPGLL,4656.121,N,09143.824,W
10/05/2010,14:00:08.546,$GPGLL,4656.135,N,09143.792,W
10/05/2010,14:00:18.609,$GPGLL,4656.149,N,09143.761,W
10/05/2010,14:00:28.546,$GPGLL,4656.163,N,09143.729,W
10/05/2010,14:00:38.546,$GPGLL,4656.177,N,09143.698,W
10/05/2010,14:00:48.546,$GPGLL,4656.192,N,09143.667,W
10/05/2010,14:00:58.546,$GPGLL,4656.206,N,09143.636,W
10/05/2010,14:01:08.546,$GPGLL,4656.220,N,09143.604,W
10/05/2010,14:01:18.500,$GPGLL,4656.234,N,09143.573,W
10/05/2010,14:01:28.500,$GPGLL,4656.247,N,09143.541,W
10/05/2010,14:01:38.500,$GPGLL,4656.260,N,09143.510,W
10/05/2010,14:01:48.484,$GPGLL,4656.273,N,09143.478,W
10/05/2010,14:01:58.500,$GPGLL,4656.287,N,09143.446,W
10/05/2010,14:02:08.500,$GPGLL,4656.300,N,09143.415,W
10/05/2010,14:02:18.609,$GPGLL,4656.314,N,09143.383,W
10/05/2010,14:02:28.500,$GPGLL,4656.327,N,09143.352,W
10/05/2010,14:02:38.500,$GPGLL,4656.340,N,09143.320,W
10/05/2010,14:02:48.609,$GPGLL,4656.354,N,09143.289,W
10/05/2010,14:02:58.687,$GPVTG,57,T,58,M,9.1,N,16.9,K
10/05/2010,14:03:08.718,$GPVTG,57,T,58,M,9.1,N,16.9,K
10/05/2010,14:03:18.718,$GPVTG,57,T,58,M,9.1,N,16.8,K
10/05/2010,14:03:28.703,$GPVTG,57,T,58,M,9.1,N,16.8,K
10/05/2010,14:03:38.718,$GPVTG,57,T,58,M,9.1,N,16.8,K
10/05/2010,14:03:48.765,$GPVTG,58,T,59,M,9.1,N,16.9,K
10/05/2010,14:03:58.765,$GPVTG,59,T,60,M,9.1,N,16.8,K
10/05/2010,14:04:08.765,$GPVTG,60,T,61,M,9.1,N,16.9,K
10/05/2010,14:04:18.718,$GPVTG,59,T,60,M,9.1,N,16.9,K
10/05/2010,14:04:28.812,$GPVTG,58,T,59,M,9.1,N,16.9,K
10/05/2010,14:04:38.718,$GPVTG,58,T,59,M,9.1,N,16.8,K
10/05/2010,14:04:48.718,$GPVTG,59,T,60,M,9.1,N,16.9,K
10/05/2010,14:04:58.671,$GPVTG,60,T,61,M,9.1,N,16.8,K
10/05/2010,14:05:08.718,$GPVTG,60,T,61,M,9.1,N,16.8,K
10/05/2010,14:05:18.765,$GPVTG,60,T,61,M,9.1,N,16.9,K
10/05/2010,14:05:28.812,$GPVTG,59,T,60,M,9.1,N,16.9,K
10/05/2010,14:05:38.812,$GPVTG,58,T,59,M,9.1,N,16.8,K
10/05/2010,14:05:48.812,$GPVTG,59,T,60,M,9.1,N,16.8,K
10/05/2010,14:05:58.765,$GPVTG,59,T,60,M,9.1,N,16.8,K
10/05/2010,14:06:08.671,$GPVTG,59,T,60,M,9.1,N,16.8,K
10/05/2010,14:06:18.671,$GPVTG,60,T,61,M,9.1,N,16.8,K
10/05/2010,14:06:28.687,$GPVTG,60,T,61,M,9.1,N,16.8,K
10/05/2010,14:06:38.609,$GPGLL,4656.656,N,09142.566,W
10/05/2010,14:06:48.609,$GPGLL,4656.670,N,09142.535,W
10/05/2010,14:06:58.500,$GPGLL,4656.683,N,09142.503,W
10/05/2010,14:07:08.562,$GPGLL,4656.696,N,09142.472,W
10/05/2010,14:07:18.609,$GPGLL,4656.709,N,09142.442,W
10/05/2010,14:07:28.609,$GPGLL,4656.723,N,09142.411,W
10/05/2010,14:07:38.500,$GPGLL,4656.736,N,09142.381,W
10/05/2010,14:07:48.500,$GPGLL,4656.750,N,09142.351,W
10/05/2010,14:07:58.500,$GPGLL,4656.763,N,09142.320,W
10/05/2010,14:08:08.609,$GPGLL,4656.777,N,09142.290,W
10/05/2010,14:08:18.562,$GPGLL,4656.791,N,09142.260,W
10/05/2010,14:08:28.500,$GPGLL,4656.805,N,09142.231,W
10/05/2010,14:08:38.500,$GPGLL,4656.820,N,09142.201,W
10/05/2010,14:08:48.500,$GPGLL,4656.835,N,09142.170,W
10/05/2010,14:08:58.562,$GPGLL,4656.850,N,09142.141,W
10/05/2010,14:09:08.609,$GPGLL,4656.865,N,09142.111,W
10/05/2010,14:09:18.500,$GPGLL,4656.880,N,09142.082,W
10/05/2010,14:09:28.609,$GPGLL,4656.895,N,09142.052,W
10/05/2010,14:09:38.562,$GPGLL,4656.910,N,09142.023,W
10/05/2010,14:09:48.562,$GPGLL,4656.924,N,09141.993,W
10/05/2010,14:09:58.609,$GPGLL,4656.937,N,09141.962,W
10/05/2010,14:10:08.500,$GPGLL,4656.950,N,09141.932,W
10/05/2010,14:10:18.609,$GPGLL,4656.963,N,09141.901,W
10/05/2010,14:10:28.609,$GPGLL,4656.976,N,09141.870,W
10/05/2010,14:10:38.500,$GPGLL,4656.990,N,09141.841,W
10/05/2010,14:10:48.609,$GPGLL,4657.004,N,09141.812,W
10/05/2010,14:10:58.500,$GPGLL,4657.019,N,09141.782,W
10/05/2010,14:11:08.500,$GPGLL,4657.033,N,09141.752,W
10/05/2010,14:11:18.500,$GPGLL,4657.047,N,09141.723,W
10/05/2010,14:11:28.500,$GPGLL,4657.061,N,09141.693,W
10/05/2010,14:11:38.562,$GPGLL,4657.075,N,09141.662,W
10/05/2010,14:11:48.500,$GPGLL,4657.088,N,09141.632,W
10/05/2010,14:11:58.609,$GPGLL,4657.101,N,09141.602,W
10/05/2010,14:12:08.609,$GPGLL,4657.115,N,09141.571,W
10/05/2010,14:12:18.562,$GPGLL,4657.128,N,09141.542,W
10/05/2010,14:12:28.562,$GPGLL,4657.143,N,09141.512,W
10/05/2010,14:12:38.609,$GPGLL,4657.156,N,09141.482,W
10/05/2010,14:12:48.500,$GPGLL,4657.168,N,09141.451,W
10/05/2010,14:12:58.500,$GPGLL,4657.181,N,09141.420,W
10/05/2010,14:13:08.500,$GPGLL,4657.193,N,09141.389,W
10/05/2010,14:13:18.562,$GPGLL,4657.206,N,09141.359,W
10/05/2010,14:13:28.609,$GPGLL,4657.219,N,09141.329,W
10/05/2010,14:13:38.562,$GPGLL,4657.233,N,09141.299,W
10/05/2010,14:13:48.500,$GPGLL,4657.246,N,09141.268,W
10/05/2010,14:13:58.609,$GPGLL,4657.259,N,09141.238,W
10/05/2010,14:14:08.562,$GPGLL,4657.272,N,09141.208,W
10/05/2010,14:14:18.609,$GPGLL,4657.285,N,09141.177,W
10/05/2010,14:14:28.609,$GPGLL,4657.298,N,09141.146,W
10/05/2010,14:14:38.562,$GPGLL,4657.311,N,09141.116,W
10/05/2010,14:14:48.500,$GPGLL,4657.324,N,09141.086,W
10/05/2010,14:14:58.609,$GPGLL,4657.337,N,09141.056,W
10/05/2010,14:15:08.562,$GPGLL,4657.350,N,09141.025,W
10/05/2010,14:15:18.500,$GPGLL,4657.363,N,09140.995,W
10/05/2010,14:15:28.562,$GPGLL,4657.377,N,09140.965,W
10/05/2010,14:15:38.500,$GPGLL,4657.390,N,09140.935,W
10/05/2010,14:15:48.500,$GPGLL,4657.404,N,09140.905,W
10/05/2010,14:15:58.562,$GPGLL,4657.418,N,09140.875,W
10/05/2010,14:16:08.609,$GPGLL,4657.431,N,09140.845,W
10/05/2010,14:16:18.500,$GPGLL,4657.445,N,09140.815,W
10/05/2010,14:16:28.609,$GPGLL,4657.458,N,09140.785,W
10/05/2010,14:16:38.500,$GPGLL,4657.472,N,09140.754,W
10/05/2010,14:16:48.500,$GPGLL,4657.485,N,09140.723,W
10/05/2010,14:16:58.500,$GPGLL,4657.498,N,09140.692,W
10/05/2010,14:17:08.562,$GPGLL,4657.511,N,09140.662,W
10/05/2010,14:17:18.500,$GPGLL,4657.524,N,09140.632,W
10/05/2010,14:17:28.562,$GPGLL,4657.538,N,09140.602,W
10/05/2010,14:17:38.609,$GPGLL,4657.551,N,09140.571,W
10/05/2010,14:17:48.500,$GPGLL,4657.564,N,09140.540,W
10/05/2010,14:17:58.609,$GPGLL,4657.577,N,09140.510,W
10/05/2010,14:18:08.609,$GPGLL,4657.590,N,09140.479,W
10/05/2010,14:18:18.609,$GPGLL,4657.604,N,09140.449,W
10/05/2010,14:18:28.609,$GPGLL,4657.617,N,09140.420,W
10/05/2010,14:18:38.609,$GPGLL,4657.631,N,09140.389,W
10/05/2010,14:18:48.515,$GPGLL,4657.644,N,09140.359,W
10/05/2010,14:18:58.562,$GPGLL,4657.657,N,09140.328,W
10/05/2010,14:19:08.562,$GPGLL,4657.670,N,09140.298,W
10/05/2010,14:19:18.609,$GPGLL,4657.684,N,09140.268,W
10/05/2010,14:19:28.609,$GPGLL,4657.697,N,09140.237,W
10/05/2010,14:19:38.500,$GPGLL,4657.709,N,09140.206,W
10/05/2010,14:19:48.515,$GPGLL,4657.721,N,09140.175,W
10/05/2010,14:19:58.500,$GPGLL,4657.734,N,09140.144,W
10/05/2010,14:20:08.609,$GPGLL,4657.746,N,09140.113,W
10/05/2010,14:20:18.515,$GPGLL,4657.759,N,09140.082,W
10/05/2010,14:20:28.500,$GPGLL,4657.773,N,09140.051,W
10/05/2010,14:20:38.468,$GPGLL,4657.787,N,09140.021,W
10/05/2010,14:20:48.515,$GPGLL,4657.800,N,09139.990,W
10/05/2010,14:20:58.609,$GPGLL,4657.813,N,09139.960,W
10/05/2010,14:21:08.500,$GPGLL,4657.826,N,09139.928,W
10/05/2010,14:21:18.609,$GPGLL,4657.839,N,09139.897,W
10/05/2010,14:21:28.609,$GPGLL,4657.851,N,09139.866,W
10/05/2010,14:21:38.562,$GPGLL,4657.863,N,09139.835,W
10/05/2010,14:21:48.609,$GPGLL,4657.876,N,09139.805,W
10/05/2010,14:21:58.500,$GPGLL,4657.888,N,09139.774,W
10/05/2010,14:22:08.609,$GPGLL,4657.901,N,09139.743,W
10/05/2010,14:22:18.609,$GPGLL,4657.915,N,09139.712,W
10/05/2010,14:22:28.500,$GPGLL,4657.928,N,09139.682,W
10/05/2010,14:22:38.500,$GPGLL,4657.942,N,09139.651,W
10/05/2010,14:22:48.609,$GPGLL,4657.955,N,09139.622,W
10/05/2010,14:22:58.562,$GPGLL,4657.968,N,09139.592,W
10/05/2010,14:23:08.562,$GPGLL,4657.982,N,09139.562,W
10/05/2010,14:23:18.609,$GPGLL,4657.995,N,09139.532,W
10/05/2010,14:23:28.500,$GPGLL,4658.008,N,09139.502,W
10/05/2010,14:23:38.609,$GPGLL,4658.022,N,09139.472,W
10/05/2010,14:23:48.515,$GPGLL,4658.035,N,09139.441,W
10/05/2010,14:23:58.609,$GPGLL,4658.048,N,09139.410,W
10/05/2010,14:24:08.562,$GPGLL,4658.061,N,09139.380,W
10/05/2010,14:24:18.515,$GPGLL,4658.075,N,09139.349,W
10/05/2010,14:24:28.609,$GPGLL,4658.089,N,09139.319,W
10/05/2010,14:24:38.562,$GPGLL,4658.102,N,09139.288,W
10/05/2010,14:24:48.515,$GPGLL,4658.116,N,09139.257,W
10/05/2010,14:24:58.609,$GPGLL,4658.129,N,09139.226,W
10/05/2010,14:25:08.515,$GPGLL,4658.143,N,09139.195,W
10/05/2010,14:25:18.515,$GPGLL,4658.157,N,09139.165,W
10/05/2010,14:25:28.609,$GPGLL,4658.170,N,09139.135,W
10/05/2010,14:25:38.562,$GPGLL,4658.183,N,09139.104,W
10/05/2010,14:25:48.515,$GPGLL,4658.197,N,09139.074,W
10/05/2010,14:25:58.609,$GPGLL,4658.211,N,09139.043,W
10/05/2010,14:26:08.515,$GPGLL,4658.225,N,09139.012,W
10/05/2010,14:26:18.515,$GPGLL,4658.239,N,09138.982,W
10/05/2010,14:26:28.562,$GPGLL,4658.253,N,09138.951,W
10/05/2010,14:26:38.609,$GPGLL,4658.266,N,09138.921,W
10/05/2010,14:26:48.609,$GPGLL,4658.279,N,09138.891,W
10/05/2010,14:26:58.515,$GPGLL,4658.292,N,09138.859,W
10/05/2010,14:27:08.609,$GPGLL,4658.305,N,09138.828,W
10/05/2010,14:27:18.515,$GPGLL,4658.318,N,09138.798,W
10/05/2010,14:27:28.609,$GPGLL,4658.331,N,09138.767,W
10/05/2010,14:27:38.562,$GPGLL,4658.345,N,09138.737,W
10/05/2010,14:27:48.609,$GPGLL,4658.359,N,09138.707,W
10/05/2010,14:27:58.562,$GPGLL,4658.373,N,09138.677,W
10/05/2010,14:28:08.515,$GPGLL,4658.386,N,09138.647,W
10/05/2010,14:28:18.484,$GPGLL,4658.400,N,09138.617,W
10/05/2010,14:28:28.562,$GPGLL,4658.413,N,09138.587,W
10/05/2010,14:28:38.609,$GPGLL,4658.425,N,09138.556,W
10/05/2010,14:28:48.515,$GPGLL,4658.438,N,09138.525,W
10/05/2010,14:28:58.562,$GPGLL,4658.450,N,09138.494,W
10/05/2010,14:29:08.609,$GPGLL,4658.463,N,09138.464,W
10/05/2010,14:29:18.515,$GPGLL,4658.476,N,09138.433,W
10/05/2010,14:29:28.515,$GPGLL,4658.489,N,09138.402,W
10/05/2010,14:29:38.609,$GPGLL,4658.502,N,09138.372,W
10/05/2010,14:29:48.562,$GPGLL,4658.516,N,09138.342,W
10/05/2010,14:29:58.609,$GPGLL,4658.530,N,09138.312,W
10/05/2010,14:30:08.562,$GPGLL,4658.544,N,09138.282,W
10/05/2010,14:30:18.515,$GPGLL,4658.557,N,09138.251,W
10/05/2010,14:30:28.609,$GPGLL,4658.570,N,09138.220,W
10/05/2010,14:30:38.562,$GPGLL,4658.583,N,09138.190,W
10/05/2010,14:30:48.515,$GPGLL,4658.597,N,09138.159,W
10/05/2010,14:30:58.609,$GPGLL,4658.610,N,09138.129,W
10/05/2010,14:31:08.515,$GPGLL,4658.624,N,09138.099,W
10/05/2010,14:31:18.609,$GPGLL,4658.638,N,09138.069,W
10/05/2010,14:31:28.515,$GPGLL,4658.651,N,09138.039,W
10/05/2010,14:31:38.562,$GPGLL,4658.664,N,09138.008,W
10/05/2010,14:31:48.484,$GPGLL,4658.677,N,09137.977,W
10/05/2010,14:31:58.515,$GPGLL,4658.690,N,09137.947,W
10/05/2010,14:32:08.515,$GPGLL,4658.703,N,09137.917,W
10/05/2010,14:32:18.515,$GPGLL,4658.716,N,09137.887,W
10/05/2010,14:32:28.609,$GPGLL,4658.730,N,09137.857,W
10/05/2010,14:32:38.562,$GPGLL,4658.743,N,09137.827,W
10/05/2010,14:32:48.515,$GPGLL,4658.757,N,09137.797,W
10/05/2010,14:32:58.609,$GPGLL,4658.771,N,09137.767,W
10/05/2010,14:33:08.515,$GPGLL,4658.784,N,09137.736,W
10/05/2010,14:33:18.515,$GPGLL,4658.797,N,09137.705,W
10/05/2010,14:33:28.609,$GPGLL,4658.811,N,09137.675,W
10/05/2010,14:33:38.609,$GPGLL,4658.824,N,09137.644,W
10/05/2010,14:33:48.609,$GPGLL,4658.837,N,09137.614,W
10/05/2010,14:33:58.671,$GPVTG,59,T,60,M,8.9,N,16.4,K
10/05/2010,14:34:08.718,$GPVTG,59,T,60,M,8.9,N,16.4,K
10/05/2010,14:34:18.609,$GPGLL,4658.874,N,09137.523,W
10/05/2010,14:34:28.515,$GPGLL,4658.886,N,09137.492,W
10/05/2010,14:34:38.515,$GPGLL,4658.898,N,09137.461,W
10/05/2010,14:34:48.609,$GPGLL,4658.910,N,09137.430,W
10/05/2010,14:34:58.515,$GPGLL,4658.923,N,09137.398,W
10/05/2010,14:35:08.562,$GPGLL,4658.936,N,09137.367,W
10/05/2010,14:35:18.515,$GPGLL,4658.949,N,09137.337,W
10/05/2010,14:35:28.609,$GPGLL,4658.962,N,09137.306,W
10/05/2010,14:35:38.562,$GPGLL,4658.976,N,09137.276,W
10/05/2010,14:35:48.515,$GPGLL,4658.989,N,09137.245,W
10/05/2010,14:35:58.562,$GPGLL,4659.002,N,09137.214,W
10/05/2010,14:36:08.515,$GPGLL,4659.014,N,09137.183,W
10/05/2010,14:36:18.562,$GPGLL,4659.026,N,09137.151,W
10/05/2010,14:36:28.609,$GPGLL,4659.038,N,09137.120,W
10/05/2010,14:36:38.609,$GPGLL,4659.051,N,09137.089,W
10/05/2010,14:36:48.562,$GPGLL,4659.064,N,09137.058,W
10/05/2010,14:36:58.609,$GPGLL,4659.077,N,09137.027,W
10/05/2010,14:37:08.609,$GPGLL,4659.089,N,09136.997,W
10/05/2010,14:37:18.515,$GPGLL,4659.102,N,09136.966,W
10/05/2010,14:37:28.515,$GPGLL,4659.114,N,09136.935,W
10/05/2010,14:37:38.562,$GPGLL,4659.127,N,09136.904,W
10/05/2010,14:37:48.609,$GPGLL,4659.140,N,09136.874,W
10/05/2010,14:37:58.562,$GPGLL,4659.154,N,09136.843,W
10/05/2010,14:38:08.515,$GPGLL,4659.166,N,09136.812,W
10/05/2010,14:38:18.515,$GPGLL,4659.179,N,09136.781,W
10/05/2010,14:38:28.562,$GPGLL,4659.191,N,09136.750,W
10/05/2010,14:38:38.609,$GPGLL,4659.204,N,09136.720,W
10/05/2010,14:38:48.609,$GPGLL,4659.217,N,09136.689,W
10/05/2010,14:38:58.515,$GPGLL,4659.229,N,09136.658,W
10/05/2010,14:39:08.515,$GPGLL,4659.241,N,09136.627,W
10/05/2010,14:39:18.609,$GPGLL,4659.254,N,09136.596,W
10/05/2010,14:39:28.609,$GPGLL,4659.267,N,09136.566,W
10/05/2010,14:39:38.562,$GPGLL,4659.280,N,09136.535,W
10/05/2010,14:39:48.515,$GPGLL,4659.293,N,09136.505,W
10/05/2010,14:39:58.562,$GPGLL,4659.306,N,09136.474,W
10/05/2010,14:40:08.609,$GPGLL,4659.320,N,09136.444,W
10/05/2010,14:40:18.515,$GPGLL,4659.334,N,09136.414,W
10/05/2010,14:40:28.562,$GPGLL,4659.348,N,09136.384,W
10/05/2010,14:40:38.609,$GPGLL,4659.362,N,09136.354,W
10/05/2010,14:40:48.609,$GPGLL,4659.376,N,09136.324,W
10/05/2010,14:40:58.515,$GPGLL,4659.390,N,09136.294,W
10/05/2010,14:41:08.609,$GPGLL,4659.403,N,09136.265,W
10/05/2010,14:41:18.562,$GPGLL,4659.418,N,09136.235,W
10/05/2010,14:41:28.609,$GPGLL,4659.431,N,09136.205,W
10/05/2010,14:41:38.515,$GPGLL,4659.445,N,09136.175,W
10/05/2010,14:41:48.515,$GPGLL,4659.459,N,09136.145,W
10/05/2010,14:41:58.609,$GPGLL,4659.473,N,09136.116,W
10/05/2010,14:42:08.515,$GPGLL,4659.487,N,09136.086,W
10/05/2010,14:42:18.609,$GPGLL,4659.501,N,09136.056,W
10/05/2010,14:42:28.562,$GPGLL,4659.515,N,09136.027,W
10/05/2010,14:42:38.609,$GPGLL,4659.529,N,09135.997,W
10/05/2010,14:42:48.609,$GPGLL,4659.543,N,09135.967,W
10/05/2010,14:42:58.562,$GPGLL,4659.556,N,09135.937,W
10/05/2010,14:43:08.484,$GPGLL,4659.570,N,09135.907,W
10/05/2010,14:43:18.515,$GPGLL,4659.584,N,09135.877,W
10/05/2010,14:43:28.515,$GPGLL,4659.598,N,09135.848,W
10/05/2010,14:43:38.562,$GPGLL,4659.612,N,09135.818,W
10/05/2010,14:43:48.515,$GPGLL,4659.625,N,09135.788,W
10/05/2010,14:43:58.609,$GPGLL,4659.639,N,09135.758,W
10/05/2010,14:44:08.562,$GPGLL,4659.652,N,09135.727,W
10/05/2010,14:44:18.515,$GPGLL,4659.665,N,09135.696,W
10/05/2010,14:44:28.562,$GPGLL,4659.678,N,09135.665,W
10/05/2010,14:44:38.515,$GPGLL,4659.691,N,09135.634,W
10/05/2010,14:44:48.562,$GPGLL,4659.704,N,09135.604,W
10/05/2010,14:44:58.515,$GPGLL,4659.718,N,09135.575,W
10/05/2010,14:45:08.609,$GPGLL,4659.732,N,09135.545,W
10/05/2010,14:45:18.515,$GPGLL,4659.746,N,09135.515,W
10/05/2010,14:45:28.515,$GPGLL,4659.760,N,09135.486,W
10/05/2010,14:45:38.515,$GPGLL,4659.774,N,09135.456,W
10/05/2010,14:45:48.562,$GPGLL,4659.788,N,09135.426,W
10/05/2010,14:45:58.515,$GPGLL,4659.801,N,09135.396,W
10/05/2010,14:46:08.562,$GPGLL,4659.815,N,09135.366,W
10/05/2010,14:46:18.515,$GPGLL,4659.828,N,09135.336,W
10/05/2010,14:46:28.609,$GPGLL,4659.841,N,09135.306,W
10/05/2010,14:46:38.609,$GPGLL,4659.855,N,09135.275,W
10/05/2010,14:46:48.515,$GPGLL,4659.868,N,09135.245,W
10/05/2010,14:46:58.468,$GPGLL,4659.880,N,09135.213,W
10/05/2010,14:47:08.468,$GPGLL,4659.892,N,09135.181,W
10/05/2010,14:47:18.515,$GPGLL,4659.904,N,09135.149,W
10/05/2010,14:47:28.515,$GPGLL,4659.916,N,09135.117,W
10/05/2010,14:47:38.609,$GPGLL,4659.928,N,09135.086,W
10/05/2010,14:47:48.515,$GPGLL,4659.941,N,09135.056,W
10/05/2010,14:47:58.515,$GPGLL,4659.954,N,09135.025,W
10/05/2010,14:48:08.515,$GPGLL,4659.967,N,09134.994,W
10/05/2010,14:48:18.515,$GPGLL,4659.979,N,09134.963,W
10/05/2010,14:48:28.609,$GPGLL,4659.992,N,09134.932,W
10/05/2010,14:48:38.671,$GPVTG,60,T,61,M,8.9,N,16.5,K
10/05/2010,14:48:48.718,$GPVTG,60,T,61,M,8.9,N,16.5,K
10/05/2010,14:48:58.765,$GPVTG,61,T,62,M,8.9,N,16.4,K
10/05/2010,14:49:08.718,$GPVTG,61,T,62,M,8.9,N,16.5,K
10/05/2010,14:49:18.609,$GPGLL,4700.054,N,09134.773,W
10/05/2010,14:49:28.609,$GPGLL,4700.066,N,09134.741,W
10/05/2010,14:49:38.562,$GPGLL,4700.079,N,09134.710,W
10/05/2010,14:49:48.609,$GPGLL,4700.091,N,09134.679,W
10/05/2010,14:49:58.609,$GPGLL,4700.103,N,09134.648,W
10/05/2010,14:50:08.562,$GPGLL,4700.115,N,09134.616,W
10/05/2010,14:50:18.609,$GPGLL,4700.128,N,09134.585,W
10/05/2010,14:50:28.609,$GPGLL,4700.140,N,09134.554,W
10/05/2010,14:50:38.515,$GPGLL,4700.152,N,09134.522,W
10/05/2010,14:50:48.609,$GPGLL,4700.165,N,09134.492,W
10/05/2010,14:50:58.609,$GPGLL,4700.178,N,09134.461,W
10/05/2010,14:51:08.515,$GPGLL,4700.191,N,09134.431,W
10/05/2010,14:51:18.515,$GPGLL,4700.203,N,09134.400,W
10/05/2010,14:51:28.515,$GPGLL,4700.217,N,09134.370,W
10/05/2010,14:51:38.609,$GPGLL,4700.230,N,09134.340,W
10/05/2010,14:51:48.609,$GPGLL,4700.244,N,09134.310,W
10/05/2010,14:51:58.609,$GPGLL,4700.258,N,09134.280,W
10/05/2010,14:52:08.609,$GPGLL,4700.272,N,09134.251,W
10/05/2010,14:52:18.562,$GPGLL,4700.287,N,09134.221,W
10/05/2010,14:52:28.515,$GPGLL,4700.301,N,09134.192,W
10/05/2010,14:52:38.562,$GPGLL,4700.314,N,09134.161,W
10/05/2010,14:52:48.515,$GPGLL,4700.327,N,09134.131,W
10/05/2010,14:52:58.609,$GPGLL,4700.340,N,09134.100,W
10/05/2010,14:53:08.609,$GPGLL,4700.353,N,09134.069,W
10/05/2010,14:53:18.609,$GPGLL,4700.366,N,09134.038,W
10/05/2010,14:53:28.515,$GPGLL,4700.379,N,09134.007,W
10/05/2010,14:53:38.515,$GPGLL,4700.392,N,09133.977,W
10/05/2010,14:53:48.609,$GPGLL,4700.406,N,09133.947,W
10/05/2010,14:53:58.609,$GPGLL,4700.421,N,09133.918,W
10/05/2010,14:54:08.609,$GPGLL,4700.435,N,09133.888,W
10/05/2010,14:54:18.515,$GPGLL,4700.448,N,09133.857,W
10/05/2010,14:54:28.562,$GPGLL,4700.461,N,09133.827,W
10/05/2010,14:54:38.562,$GPGLL,4700.475,N,09133.796,W
10/05/2010,14:54:48.515,$GPGLL,4700.488,N,09133.766,W
10/05/2010,14:54:58.609,$GPGLL,4700.502,N,09133.735,W
10/05/2010,14:55:08.515,$GPGLL,4700.516,N,09133.705,W
10/05/2010,14:55:18.515,$GPGLL,4700.530,N,09133.676,W
10/05/2010,14:55:28.515,$GPGLL,4700.544,N,09133.646,W
10/05/2010,14:55:38.468,$GPGLL,4700.558,N,09133.617,W
10/05/2010,14:55:48.515,$GPGLL,4700.572,N,09133.587,W
10/05/2010,14:55:58.515,$GPGLL,4700.585,N,09133.557,W
10/05/2010,14:56:08.562,$GPGLL,4700.598,N,09133.527,W
10/05/2010,14:56:18.609,$GPGLL,4700.612,N,09133.497,W
10/05/2010,14:56:28.609,$GPGLL,4700.625,N,09133.466,W
10/05/2010,14:56:38.687,$GPVTG,57,T,58,M,8.9,N,16.4,K
10/05/2010,14:56:48.781,$GPVTG,56,T,57,M,8.9,N,16.4,K
10/05/2010,14:56:58.718,$GPVTG,56,T,57,M,8.9,N,16.4,K
10/05/2010,14:57:08.781,$GPVTG,56,T,57,M,8.9,N,16.4,K
10/05/2010,14:57:18.828,$GPVTG,56,T,57,M,8.9,N,16.4,K
10/05/2010,14:57:28.828,$GPVTG,57,T,58,M,8.9,N,16.4,K
10/05/2010,14:57:38.781,$GPVTG,57,T,58,M,8.9,N,16.4,K
10/05/2010,14:57:48.718,$GPVTG,57,T,58,M,8.9,N,16.4,K
10/05/2010,14:57:58.609,$GPGLL,4700.747,N,09133.196,W
10/05/2010,14:58:08.515,$GPGLL,4700.760,N,09133.165,W
10/05/2010,14:58:18.515,$GPGLL,4700.774,N,09133.136,W
10/05/2010,14:58:28.562,$GPGLL,4700.788,N,09133.106,W
10/05/2010,14:58:38.562,$GPGLL,4700.802,N,09133.076,W
10/05/2010,14:58:48.562,$GPGLL,4700.816,N,09133.046,W
10/05/2010,14:58:58.609,$GPGLL,4700.829,N,09133.016,W
10/05/2010,14:59:08.515,$GPGLL,4700.842,N,09132.985,W
10/05/2010,14:59:18.515,$GPGLL,4700.856,N,09132.955,W
10/05/2010,14:59:28.609,$GPGLL,4700.869,N,09132.925,W
10/05/2010,14:59:38.562,$GPGLL,4700.883,N,09132.894,W
10/05/2010,14:59:48.515,$GPGLL,4700.896,N,09132.864,W
10/05/2010,14:59:58.609,$GPGLL,4700.909,N,09132.834,W
10/05/2010,15:00:08.562,$GPGLL,4700.923,N,09132.803,W
10/05/2010,15:00:18.609,$GPGLL,4700.933,N,09132.771,W
10/05/2010,15:00:28.515,$GPGLL,4700.941,N,09132.737,W
10/05/2010,15:00:38.609,$GPGLL,4700.949,N,09132.704,W
10/05/2010,15:00:48.562,$GPGLL,4700.958,N,09132.671,W
10/05/2010,15:00:58.515,$GPGLL,4700.967,N,09132.637,W
10/05/2010,15:01:08.609,$GPGLL,4700.975,N,09132.603,W
10/05/2010,15:01:18.515,$GPGLL,4700.982,N,09132.569,W
10/05/2010,15:01:28.562,$GPGLL,4700.990,N,09132.535,W
10/05/2010,15:01:38.609,$GPGLL,4700.999,N,09132.501,W
10/05/2010,15:01:48.609,$GPGLL,4701.010,N,09132.469,W
10/05/2010,15:01:58.609,$GPGLL,4701.022,N,09132.439,W
10/05/2010,15:02:08.609,$GPGLL,4701.034,N,09132.407,W
10/05/2010,15:02:18.609,$GPGLL,4701.046,N,09132.376,W
10/05/2010,15:02:28.562,$GPGLL,4701.058,N,09132.345,W
10/05/2010,15:02:38.609,$GPGLL,4701.071,N,09132.314,W
10/05/2010,15:02:48.609,$GPGLL,4701.084,N,09132.284,W
10/05/2010,15:02:58.562,$GPGLL,4701.098,N,09132.253,W
10/05/2010,15:03:08.609,$GPGLL,4701.111,N,09132.224,W
10/05/2010,15:03:18.562,$GPGLL,4701.125,N,09132.194,W
10/05/2010,15:03:28.609,$GPGLL,4701.138,N,09132.163,W
10/05/2010,15:03:38.609,$GPGLL,4701.152,N,09132.133,W
10/05/2010,15:03:48.515,$GPGLL,4701.165,N,09132.103,W
10/05/2010,15:03:58.515,$GPGLL,4701.179,N,09132.073,W
10/05/2010,15:04:08.562,$GPGLL,4701.192,N,09132.042,W
10/05/2010,15:04:18.515,$GPGLL,4701.206,N,09132.012,W
10/05/2010,15:04:28.609,$GPGLL,4701.220,N,09131.982,W
10/05/2010,15:04:38.562,$GPGLL,4701.234,N,09131.952,W
10/05/2010,15:04:48.515,$GPGLL,4701.247,N,09131.922,W
10/05/2010,15:04:58.515,$GPGLL,4701.261,N,09131.891,W
10/05/2010,15:05:08.515,$GPGLL,4701.274,N,09131.860,W
10/05/2010,15:05:18.609,$GPGLL,4701.288,N,09131.830,W
10/05/2010,15:05:28.609,$GPGLL,4701.302,N,09131.800,W
10/05/2010,15:05:38.609,$GPGLL,4701.316,N,09131.771,W
10/05/2010,15:05:48.609,$GPGLL,4701.330,N,09131.740,W
10/05/2010,15:05:58.515,$GPGLL,4701.344,N,09131.710,W
10/05/2010,15:06:08.609,$GPGLL,4701.358,N,09131.681,W
10/05/2010,15:06:18.609,$GPGLL,4701.372,N,09131.650,W
10/05/2010,15:06:28.609,$GPGLL,4701.385,N,09131.620,W
10/05/2010,15:06:38.562,$GPGLL,4701.399,N,09131.590,W
10/05/2010,15:06:48.484,$GPGLL,4701.414,N,09131.561,W
10/05/2010,15:06:58.562,$GPGLL,4701.427,N,09131.531,W
10/05/2010,15:07:08.515,$GPGLL,4701.441,N,09131.500,W
10/05/2010,15:07:18.609,$GPGLL,4701.455,N,09131.470,W
10/05/2010,15:07:28.562,$GPGLL,4701.470,N,09131.441,W
10/05/2010,15:07:38.515,$GPGLL,4701.484,N,09131.410,W
10/05/2010,15:07:48.609,$GPGLL,4701.498,N,09131.380,W
10/05/2010,15:07:58.562,$GPGLL,4701.512,N,09131.350,W
10/05/2010,15:08:08.515,$GPGLL,4701.525,N,09131.319,W
10/05/2010,15:08:18.609,$GPGLL,4701.539,N,09131.289,W
10/05/2010,15:08:28.562,$GPGLL,4701.554,N,09131.259,W
10/05/2010,15:08:38.609,$GPGLL,4701.568,N,09131.229,W
10/05/2010,15:08:48.515,$GPGLL,4701.581,N,09131.199,W
10/05/2010,15:08:58.515,$GPGLL,4701.594,N,09131.168,W
10/05/2010,15:09:08.515,$GPGLL,4701.607,N,09131.136,W
10/05/2010,15:09:18.515,$GPGLL,4701.620,N,09131.106,W
10/05/2010,15:09:28.515,$GPGLL,4701.633,N,09131.075,W
10/05/2010,15:09:38.515,$GPGLL,4701.646,N,09131.045,W
10/05/2010,15:09:48.609,$GPGLL,4701.658,N,09131.014,W
10/05/2010,15:09:58.609,$GPGLL,4701.671,N,09130.983,W
10/05/2010,15:10:08.562,$GPGLL,4701.684,N,09130.952,W
10/05/2010,15:10:18.515,$GPGLL,4701.698,N,09130.921,W
10/05/2010,15:10:28.609,$GPGLL,4701.711,N,09130.891,W
10/05/2010,15:10:38.515,$GPGLL,4701.725,N,09130.861,W
10/05/2010,15:10:48.484,$GPGLL,4701.739,N,09130.831,W
10/05/2010,15:10:58.609,$GPGLL,4701.752,N,09130.799,W
10/05/2010,15:11:08.515,$GPGLL,4701.766,N,09130.769,W
10/05/2010,15:11:18.515,$GPGLL,4701.779,N,09130.738,W
10/05/2010,15:11:28.515,$GPGLL,4701.793,N,09130.709,W
10/05/2010,15:11:38.515,$GPGLL,4701.807,N,09130.679,W
10/05/2010,15:11:48.515,$GPGLL,4701.820,N,09130.648,W
10/05/2010,15:11:58.562,$GPGLL,4701.833,N,09130.617,W
10/05/2010,15:12:08.562,$GPGLL,4701.846,N,09130.586,W
10/05/2010,15:12:18.515,$GPGLL,4701.860,N,09130.556,W
10/05/2010,15:12:28.515,$GPGLL,4701.873,N,09130.525,W
10/05/2010,15:12:38.562,$GPGLL,4701.886,N,09130.494,W
10/05/2010,15:12:48.515,$GPGLL,4701.900,N,09130.464,W
10/05/2010,15:12:58.609,$GPGLL,4701.914,N,09130.434,W
10/05/2010,15:13:08.562,$GPGLL,4701.927,N,09130.403,W
10/05/2010,15:13:18.515,$GPGLL,4701.941,N,09130.373,W
10/05/2010,15:13:28.609,$GPGLL,4701.954,N,09130.342,W
10/05/2010,15:13:38.562,$GPGLL,4701.968,N,09130.312,W
10/05/2010,15:13:48.515,$GPGLL,4701.982,N,09130.281,W
10/05/2010,15:13:58.609,$GPGLL,4701.995,N,09130.250,W
10/05/2010,15:14:08.562,$GPGLL,4702.008,N,09130.219,W
10/05/2010,15:14:18.515,$GPGLL,4702.021,N,09130.188,W
10/05/2010,15:14:28.515,$GPGLL,4702.035,N,09130.158,W
10/05/2010,15:14:38.609,$GPGLL,4702.048,N,09130.127,W
10/05/2010,15:14:48.562,$GPGLL,4702.061,N,09130.096,W
10/05/2010,15:14:58.609,$GPGLL,4702.074,N,09130.065,W
10/05/2010,15:15:08.609,$GPGLL,4702.088,N,09130.035,W
10/05/2010,15:15:18.515,$GPGLL,4702.101,N,09130.004,W
10/05/2010,15:15:28.562,$GPGLL,4702.114,N,09129.974,W
10/05/2010,15:15:38.609,$GPGLL,4702.127,N,09129.943,W
10/05/2010,15:15:48.515,$GPGLL,4702.141,N,09129.913,W
10/05/2010,15:15:58.609,$GPGLL,4702.154,N,09129.883,W
10/05/2010,15:16:08.562,$GPGLL,4702.168,N,09129.852,W
10/05/2010,15:16:18.609,$GPGLL,4702.181,N,09129.820,W
10/05/2010,15:16:28.562,$GPGLL,4702.194,N,09129.789,W
10/05/2010,15:16:38.609,$GPGLL,4702.207,N,09129.758,W
10/05/2010,15:16:48.515,$GPGLL,4702.220,N,09129.727,W
10/05/2010,15:16:58.609,$GPGLL,4702.233,N,09129.696,W
10/05/2010,15:17:08.515,$GPGLL,4702.247,N,09129.666,W
10/05/2010,15:17:18.515,$GPGLL,4702.260,N,09129.635,W
10/05/2010,15:17:28.515,$GPGLL,4702.273,N,09129.603,W
10/05/2010,15:17:38.562,$GPGLL,4702.286,N,09129.572,W
10/05/2010,15:17:48.562,$GPGLL,4702.300,N,09129.541,W
10/05/2010,15:17:58.515,$GPGLL,4702.313,N,09129.510,W
10/05/2010,15:18:08.609,$GPGLL,4702.326,N,09129.479,W
10/05/2010,15:18:18.562,$GPGLL,4702.339,N,09129.448,W
10/05/2010,15:18:28.515,$GPGLL,4702.351,N,09129.416,W
10/05/2010,15:18:38.562,$GPGLL,4702.365,N,09129.385,W
10/05/2010,15:18:48.515,$GPGLL,4702.378,N,09129.354,W
10/05/2010,15:18:58.609,$GPGLL,4702.392,N,09129.323,W
10/05/2010,15:19:08.562,$GPGLL,4702.406,N,09129.293,W
10/05/2010,15:19:18.515,$GPGLL,4702.419,N,09129.262,W
10/05/2010,15:19:28.609,$GPGLL,4702.433,N,09129.231,W
10/05/2010,15:19:38.515,$GPGLL,4702.446,N,09129.200,W
10/05/2010,15:19:48.515,$GPGLL,4702.460,N,09129.169,W
10/05/2010,15:19:58.515,$GPGLL,4702.473,N,09129.139,W
10/05/2010,15:20:08.562,$GPGLL,4702.487,N,09129.108,W
10/05/2010,15:20:18.609,$GPGLL,4702.500,N,09129.078,W
10/05/2010,15:20:28.515,$GPGLL,4702.513,N,09129.047,W
10/05/2010,15:20:38.515,$GPGLL,4702.526,N,09129.015,W
10/05/2010,15:20:48.625,$GPGLL,4702.539,N,09128.984,W
10/05/2010,15:20:58.562,$GPGLL,4702.553,N,09128.954,W
10/05/2010,15:21:08.515,$GPGLL,4702.566,N,09128.922,W
10/05/2010,15:21:18.625,$GPGLL,4702.579,N,09128.891,W
10/05/2010,15:21:28.562,$GPGLL,4702.592,N,09128.860,W
10/05/2010,15:21:38.609,$GPGLL,4702.606,N,09128.829,W
10/05/2010,15:21:48.609,$GPGLL,4702.620,N,09128.798,W
10/05/2010,15:21:58.515,$GPGLL,4702.633,N,09128.767,W
10/05/2010,15:22:08.609,$GPGLL,4702.646,N,09128.736,W
10/05/2010,15:22:18.562,$GPGLL,4702.658,N,09128.705,W
10/05/2010,15:22:28.515,$GPGLL,4702.672,N,09128.674,W
10/05/2010,15:22:38.609,$GPGLL,4702.685,N,09128.644,W
10/05/2010,15:22:48.515,$GPGLL,4702.699,N,09128.613,W
10/05/2010,15:22:58.609,$GPGLL,4702.712,N,09128.582,W
10/05/2010,15:23:08.609,$GPGLL,4702.725,N,09128.550,W
10/05/2010,15:23:18.515,$GPGLL,4702.738,N,09128.520,W
10/05/2010,15:23:28.625,$GPGLL,4702.751,N,09128.488,W
10/05/2010,15:23:38.609,$GPGLL,4702.764,N,09128.457,W
10/05/2010,15:23:48.609,$GPGLL,4702.777,N,09128.426,W
10/05/2010,15:23:58.609,$GPGLL,4702.790,N,09128.396,W
10/05/2010,15:24:08.562,$GPGLL,4702.803,N,09128.365,W
10/05/2010,15:24:18.562,$GPGLL,4702.816,N,09128.335,W
10/05/2010,15:24:28.515,$GPGLL,4702.830,N,09128.304,W
10/05/2010,15:24:38.562,$GPGLL,4702.843,N,09128.273,W
10/05/2010,15:24:48.609,$GPGLL,4702.856,N,09128.242,W
10/05/2010,15:24:58.515,$GPGLL,4702.870,N,09128.212,W
